{
"type": "FeatureCollection",
"name": "swimspots",
"crs": { "type": "name", "properties": { "name": "urn:ogc:def:crs:OGC:1.3:CRS84" } },
"features": [
{ "type": "Feature", "properties": { "id": 1, "name": "Badedammen på Grorud", "latitude": 59.972101369251931, "longitude": 10.881548828535491, "water_type": "Fersk", "city": "Oslo", "county": "Oslo", "neighbourhood": "neighbourhood" }, "geometry": { "type": "Point", "coordinates": [ 10.881548828535491, 59.972101369251931 ] } },
{ "type": "Feature", "properties": { "id": 2, "name": "Badstuene på Langkaia (Bjørvika)", "latitude": 59.90813976122967, "longitude": 10.749576728263275, "water_type": "Salt ", "city": "Oslo", "county": "Oslo", "neighbourhood": "neighbourhood" }, "geometry": { "type": "Point", "coordinates": [ 10.749576728263275, 59.90813976122967 ] } },
{ "type": "Feature", "properties": { "id": 3, "name": "Badstuene på Sukkerbiten (Bjørvika)", "latitude": 59.904703311445552, "longitude": 10.752935155248037, "water_type": "Salt", "city": "Oslo", "county": "Oslo", "neighbourhood": "neighbourhood" }, "geometry": { "type": "Point", "coordinates": [ 10.752935155248037, 59.904703311445552 ] } },
{ "type": "Feature", "properties": { "id": 4, "name": "Bekkelagsbadet", "latitude": 59.880341886596682, "longitude": 10.765292241754043, "water_type": "Salt", "city": "Oslo", "county": "Oslo", "neighbourhood": "neighbourhood" }, "geometry": { "type": "Point", "coordinates": [ 10.765292241754043, 59.880341886596682 ] } },
{ "type": "Feature", "properties": { "id": 5, "name": "Bekkensten", "latitude": 59.79168007605724, "longitude": 10.733397334771222, "water_type": "Salt", "city": "Oslo", "county": "Oslo", "neighbourhood": "neighbourhood" }, "geometry": { "type": "Point", "coordinates": [ 10.733397334771222, 59.79168007605724 ] } },
{ "type": "Feature", "properties": { "id": 6, "name": "Bestemorstranda", "latitude": 59.84069510335253, "longitude": 10.766710807978479, "water_type": "Salt", "city": "Oslo", "county": "Oslo", "neighbourhood": "neighbourhood" }, "geometry": { "type": "Point", "coordinates": [ 10.766710807978479, 59.84069510335253 ] } },
{ "type": "Feature", "properties": { "id": 7, "name": "Bogstadvannet", "latitude": 59.969759665303769, "longitude": 10.636560397199673, "water_type": "Fersk", "city": "Oslo", "county": "Oslo", "neighbourhood": "neighbourhood" }, "geometry": { "type": "Point", "coordinates": [ 10.636560397199673, 59.969759665303769 ] } },
{ "type": "Feature", "properties": { "id": 8, "name": "Brekkedammen ved Frysja", "latitude": 59.967028842075834, "longitude": 10.774699062040499, "water_type": "Salt", "city": "Oslo", "county": "Oslo", "neighbourhood": "neighbourhood" }, "geometry": { "type": "Point", "coordinates": [ 10.774699062040499, 59.967028842075834 ] } },
{ "type": "Feature", "properties": { "id": 9, "name": "Bygdøy sjøbad", "latitude": 59.911095287277362, "longitude": 10.666191647308612, "water_type": "Salt", "city": "Oslo", "county": "Oslo", "neighbourhood": "neighbourhood" }, "geometry": { "type": "Point", "coordinates": [ 10.666191647308612, 59.911095287277362 ] } },
{ "type": "Feature", "properties": { "id": 10, "name": "Fiskevollbukta", "latitude": 59.842440113357412, "longitude": 10.773823723099007, "water_type": "Salt", "city": "Oslo", "county": "Oslo", "neighbourhood": "neighbourhood" }, "geometry": { "type": "Point", "coordinates": [ 10.773823723099007, 59.842440113357412 ] } },
{ "type": "Feature", "properties": { "id": 11, "name": "Gressholmen (forurensing nå)", "latitude": 59.884498011893783, "longitude": 10.720330210480952, "water_type": "Salt", "city": "Oslo", "county": "Oslo", "neighbourhood": "neighbourhood" }, "geometry": { "type": "Point", "coordinates": [ 10.720330210480952, 59.884498011893783 ] } },
{ "type": "Feature", "properties": { "id": 12, "name": "Grinidammen", "latitude": 59.951459809831789, "longitude": 10.634137558689126, "water_type": "Fersk", "city": "Oslo", "county": "Oslo", "neighbourhood": "neighbourhood" }, "geometry": { "type": "Point", "coordinates": [ 10.634137558689126, 59.951459809831789 ] } },
{ "type": "Feature", "properties": { "id": 13, "name": "Hovedøya", "latitude": 59.895204259043922, "longitude": 10.724247107509798, "water_type": "Salt", "city": "Oslo", "county": "Oslo", "neighbourhood": "neighbourhood" }, "geometry": { "type": "Point", "coordinates": [ 10.724247107509798, 59.895204259043922 ] } },
{ "type": "Feature", "properties": { "id": 14, "name": "Huk", "latitude": 59.895024111132962, "longitude": 10.675433082492965, "water_type": "Salt", "city": "Oslo", "county": "Oslo", "neighbourhood": "neighbourhood" }, "geometry": { "type": "Point", "coordinates": [ 10.675433082492965, 59.895024111132962 ] } },
{ "type": "Feature", "properties": { "id": 15, "name": "Hvervenbukta", "latitude": 59.832760849220712, "longitude": 10.772346746140446, "water_type": "Salt", "city": "Oslo", "county": "Oslo", "neighbourhood": "neighbourhood" }, "geometry": { "type": "Point", "coordinates": [ 10.772346746140446, 59.832760849220712 ] } },
{ "type": "Feature", "properties": { "id": 16, "name": "Håøya", "latitude": 59.690331298832589, "longitude": 10.572763155576732, "water_type": "Salt", "city": "Oslo", "county": "Oslo", "neighbourhood": "neighbourhood" }, "geometry": { "type": "Point", "coordinates": [ 10.572763155576732, 59.690331298832589 ] } },
{ "type": "Feature", "properties": { "id": 17, "name": "Ingierstrand", "latitude": 59.818361531448431, "longitude": 10.749451180810807, "water_type": "Salt", "city": "Oslo", "county": "Oslo", "neighbourhood": "neighbourhood" }, "geometry": { "type": "Point", "coordinates": [ 10.749451180810807, 59.818361531448431 ] } },
{ "type": "Feature", "properties": { "id": 18, "name": "Isdammen på Årvoll", "latitude": 59.955859093610414, "longitude": 10.823612857102153, "water_type": "Fersk", "city": "Oslo", "county": "Oslo", "neighbourhood": "neighbourhood" }, "geometry": { "type": "Point", "coordinates": [ 10.823612857102153, 59.955859093610414 ] } },
{ "type": "Feature", "properties": { "id": 19, "name": "Svarteputten", "latitude": 59.969979573634589, "longitude": 10.814622738764633, "water_type": "Fersk", "city": "Oslo", "county": "Oslo", "neighbourhood": "neighbourhood" }, "geometry": { "type": "Point", "coordinates": [ 10.814622738764633, 59.969979573634589 ] } },
{ "type": "Feature", "properties": { "id": 20, "name": "Katten ", "latitude": 59.85840456540366, "longitude": 10.782579385034884, "water_type": "Salt", "city": "Oslo", "county": "Oslo", "neighbourhood": "neighbourhood" }, "geometry": { "type": "Point", "coordinates": [ 10.782579385034884, 59.85840456540366 ] } },
{ "type": "Feature", "properties": { "id": 21, "name": "Langøyene", "latitude": 59.871484649496651, "longitude": 10.725255419514856, "water_type": "Salt", "city": "Oslo", "county": "Oslo", "neighbourhood": "neighbourhood" }, "geometry": { "type": "Point", "coordinates": [ 10.725255419514856, 59.871484649496651 ] } },
{ "type": "Feature", "properties": { "id": 22, "name": "Lutvann", "latitude": 59.918264031261259, "longitude": 10.881670217858955, "water_type": "Fersk", "city": "Oslo", "county": "Oslo", "neighbourhood": "neighbourhood" }, "geometry": { "type": "Point", "coordinates": [ 10.881670217858955, 59.918264031261259 ] } },
{ "type": "Feature", "properties": { "id": 23, "name": "Nordstrand bad", "latitude": 59.868828881912506, "longitude": 10.782069357096672, "water_type": "Salt", "city": "Oslo", "county": "Oslo", "neighbourhood": "neighbourhood" }, "geometry": { "type": "Point", "coordinates": [ 10.782069357096672, 59.868828881912506 ] } },
{ "type": "Feature", "properties": { "id": 24, "name": "Nydalsdammen", "latitude": 59.956891916438259, "longitude": 10.765865607518354, "water_type": "Fersk", "city": "Oslo", "county": "Oslo", "neighbourhood": "neighbourhood" }, "geometry": { "type": "Point", "coordinates": [ 10.765865607518354, 59.956891916438259 ] } },
{ "type": "Feature", "properties": { "id": 25, "name": "Nøklevann", "latitude": 59.875596545072241, "longitude": 10.862825379500499, "water_type": "Fersk", "city": "Oslo", "county": "Oslo", "neighbourhood": "neighbourhood" }, "geometry": { "type": "Point", "coordinates": [ 10.862825379500499, 59.875596545072241 ] } },
{ "type": "Feature", "properties": { "id": 26, "name": "Operastranda", "latitude": 59.9067507203942, "longitude": 10.752622068740646, "water_type": "Salt", "city": "Oslo", "county": "Oslo", "neighbourhood": "neighbourhood" }, "geometry": { "type": "Point", "coordinates": [ 10.752622068740646, 59.9067507203942 ] } },
{ "type": "Feature", "properties": { "id": 27, "name": "Paradisbukta", "latitude": 59.901988137050466, "longitude": 10.665678505247872, "water_type": "Salt", "city": "Oslo", "county": "Oslo", "neighbourhood": "neighbourhood" }, "geometry": { "type": "Point", "coordinates": [ 10.665678505247872, 59.901988137050466 ] } },
{ "type": "Feature", "properties": { "id": 28, "name": "Rambergøya", "latitude": 59.879285216659369, "longitude": 10.716977945719405, "water_type": "Salt", "city": "Oslo", "county": "Oslo", "neighbourhood": "neighbourhood" }, "geometry": { "type": "Point", "coordinates": [ 10.716977945719405, 59.879285216659369 ] } },
{ "type": "Feature", "properties": { "id": 29, "name": "Rundvannet", "latitude": 59.851424201302805, "longitude": 10.876536637639434, "water_type": "Fersk", "city": "Oslo", "county": "Oslo", "neighbourhood": "neighbourhood" }, "geometry": { "type": "Point", "coordinates": [ 10.876536637639434, 59.851424201302805 ] } },
{ "type": "Feature", "properties": { "id": 30, "name": "Skinnbukta ", "latitude": 59.866134461821296, "longitude": 10.754539506088674, "water_type": "Salt ", "city": "Oslo", "county": "Oslo", "neighbourhood": "neighbourhood" }, "geometry": { "type": "Point", "coordinates": [ 10.754539506088674, 59.866134461821296 ] } },
{ "type": "Feature", "properties": { "id": 31, "name": "Skraperudtjern", "latitude": 59.871451669822633, "longitude": 10.852359930111838, "water_type": "Fersk", "city": "Oslo", "county": "Oslo", "neighbourhood": "neighbourhood" }, "geometry": { "type": "Point", "coordinates": [ 10.852359930111838, 59.871451669822633 ] } },
{ "type": "Feature", "properties": { "id": 32, "name": "Smalvannet", "latitude": 59.852832458369576, "longitude": 10.882381539901401, "water_type": "Fersk", "city": "Oslo", "county": "Oslo", "neighbourhood": "neighbourhood" }, "geometry": { "type": "Point", "coordinates": [ 10.882381539901401, 59.852832458369576 ] } },
{ "type": "Feature", "properties": { "id": 33, "name": "Sognsvann", "latitude": 59.975982994953299, "longitude": 10.727302859075788, "water_type": "Fersk", "city": "Oslo", "county": "Oslo", "neighbourhood": "neighbourhood" }, "geometry": { "type": "Point", "coordinates": [ 10.727302859075788, 59.975982994953299 ] } },
{ "type": "Feature", "properties": { "id": 34, "name": "Solbergvannet", "latitude": 59.899931126660398, "longitude": 10.866236334619769, "water_type": "Fersk", "city": "Oslo", "county": "Oslo", "neighbourhood": "neighbourhood" }, "geometry": { "type": "Point", "coordinates": [ 10.866236334619769, 59.899931126660398 ] } },
{ "type": "Feature", "properties": { "id": 35, "name": "Sollerudstranda", "latitude": 59.912829601173897, "longitude": 10.647425874561792, "water_type": "Salt", "city": "Oslo", "county": "Oslo", "neighbourhood": "neighbourhood" }, "geometry": { "type": "Point", "coordinates": [ 10.647425874561792, 59.912829601173897 ] } },
{ "type": "Feature", "properties": { "id": 36, "name": "Solviksbukta ", "latitude": 59.865617175550526, "longitude": 10.750187484768757, "water_type": "Salt", "city": "Oslo", "county": "Oslo", "neighbourhood": "neighbourhood" }, "geometry": { "type": "Point", "coordinates": [ 10.750187484768757, 59.865617175550526 ] } },
{ "type": "Feature", "properties": { "id": 37, "name": "Steinbruvannn", "latitude": 59.982140199576961, "longitude": 10.884465468307159, "water_type": "Fersk", "city": "Oslo", "county": "Oslo", "neighbourhood": "neighbourhood" }, "geometry": { "type": "Point", "coordinates": [ 10.884465468307159, 59.982140199576961 ] } },
{ "type": "Feature", "properties": { "id": 38, "name": "Stensrudtjern", "latitude": 59.821588874819163, "longitude": 10.870801082227761, "water_type": "Fersk", "city": "Oslo", "county": "Oslo", "neighbourhood": "neighbourhood" }, "geometry": { "type": "Point", "coordinates": [ 10.870801082227761, 59.821588874819163 ] } },
{ "type": "Feature", "properties": { "id": 39, "name": "Strømsdammen", "latitude": 59.982052648264066, "longitude": 10.648149184088755, "water_type": "Fersk", "city": "Oslo", "county": "Oslo", "neighbourhood": "neighbourhood" }, "geometry": { "type": "Point", "coordinates": [ 10.648149184088755, 59.982052648264066 ] } },
{ "type": "Feature", "properties": { "id": 40, "name": "Svarttjern", "latitude": 59.968505735137406, "longitude": 10.898634997580386, "water_type": "Fersk", "city": "Oslo", "county": "Oslo", "neighbourhood": "neighbourhood" }, "geometry": { "type": "Point", "coordinates": [ 10.898634997580386, 59.968505735137406 ] } },
{ "type": "Feature", "properties": { "id": 41, "name": "Sørenga sjøbad", "latitude": 59.901153402939656, "longitude": 10.750773455247822, "water_type": "Salt", "city": "Oslo", "county": "Oslo", "neighbourhood": "neighbourhood" }, "geometry": { "type": "Point", "coordinates": [ 10.750773455247822, 59.901153402939656 ] } },
{ "type": "Feature", "properties": { "id": 42, "name": "Tjuvholmen ", "latitude": 59.906361802748798, "longitude": 10.719752772500348, "water_type": "Salt", "city": "Oslo", "county": "Oslo", "neighbourhood": "neighbourhood" }, "geometry": { "type": "Point", "coordinates": [ 10.719752772500348, 59.906361802748798 ] } },
{ "type": "Feature", "properties": { "id": 43, "name": "Trollvann", "latitude": 59.961281045663064, "longitude": 10.809136706834353, "water_type": "Fersk", "city": "Oslo", "county": "Oslo", "neighbourhood": "neighbourhood" }, "geometry": { "type": "Point", "coordinates": [ 10.809136706834353, 59.961281045663064 ] } },
{ "type": "Feature", "properties": { "id": 44, "name": "Tømmerholtjern", "latitude": 59.827996, "longitude": 10.927766, "water_type": "Fersk", "city": "Oslo", "county": "Oslo", "neighbourhood": "neighbourhood" }, "geometry": { "type": "Point", "coordinates": [ 10.927766, 59.827996 ] } },
{ "type": "Feature", "properties": { "id": 45, "name": "Ulsrudvann ", "latitude": 59.889004495792825, "longitude": 10.868006673193603, "water_type": "Fersk", "city": "Oslo", "county": "Oslo", "neighbourhood": "neighbourhood" }, "geometry": { "type": "Point", "coordinates": [ 10.868006673193603, 59.889004495792825 ] } },
{ "type": "Feature", "properties": { "id": 46, "name": "Ulvøya", "latitude": 59.86780876745263, "longitude": 10.771164887240067, "water_type": "Salt", "city": "Oslo", "county": "Oslo", "neighbourhood": "neighbourhood" }, "geometry": { "type": "Point", "coordinates": [ 10.771164887240067, 59.86780876745263 ] } },
{ "type": "Feature", "properties": { "id": 47, "name": "Vesletjern", "latitude": 59.959680634522023, "longitude": 10.860952030385548, "water_type": "Fersk", "city": "Oslo", "county": "Oslo", "neighbourhood": "neighbourhood" }, "geometry": { "type": "Point", "coordinates": [ 10.860952030385548, 59.959680634522023 ] } },
{ "type": "Feature", "properties": { "id": 48, "name": "Årvolldammen", "latitude": 59.947815503532311, "longitude": 10.819941340706437, "water_type": "Fersk", "city": "Oslo", "county": "Oslo", "neighbourhood": "neighbourhood" }, "geometry": { "type": "Point", "coordinates": [ 10.819941340706437, 59.947815503532311 ] } },
{ "type": "Feature", "properties": { "id": 49, "name": "Åkrasanden", "latitude": 59.250681, "longitude": 5.194152, "water_type": "Salt", "city": "Karmøy", "county": "Rogaland", "neighbourhood": "neighbourhood" }, "geometry": { "type": "Point", "coordinates": [ 5.194152, 59.250681 ] } }
]
}
